{
    "defibrillators": [],
    "medical_centers": [
        {
            "name": "Poliambulatorio Montebello",
            "lat": 44.5020305,
            "lon": 11.3422403,
            "phone": "Non disponibile",
            "address": "Via Montebello"
        },
        {
            "name": "Ambulatorio",
            "lat": 44.4971589,
            "lon": 11.3644901,
            "phone": "Non disponibile",
            "address": "Via Massenzio Mas\u00eca"
        },
        {
            "name": "Infermeria",
            "lat": 44.4974319,
            "lon": 11.3922128,
            "phone": "Non disponibile",
            "address": "Non disponibile"
        },
        {
            "name": "LCB Life Clinic Bologna",
            "lat": 44.5068917,
            "lon": 11.3572989,
            "phone": "Non disponibile",
            "address": "Via del Lavoro"
        },
        {
            "name": "Centro Diagnostico Cavour",
            "lat": 44.5056945,
            "lon": 11.3585803,
            "phone": "+39 051 4383810",
            "address": "Via del Lavoro"
        },
        {
            "name": "Poliambulatorio Mazzacorati",
            "lat": 44.4696292,
            "lon": 11.3697647,
            "phone": "Non disponibile",
            "address": "Via Toscana"
        },
        {
            "name": "Idroterapic",
            "lat": 44.5031703,
            "lon": 11.3631069,
            "phone": "+39 051 633 3319",
            "address": "Via San Donato"
        },
        {
            "name": "Centro Medico San Donato",
            "lat": 44.5032787,
            "lon": 11.3678169,
            "phone": "+39 051 512238",
            "address": "Via dell'Artigiano"
        },
        {
            "name": "Poliambulatorio Mengoli",
            "lat": 44.4901494,
            "lon": 11.3718621,
            "phone": "Non disponibile",
            "address": "Non disponibile"
        },
        {
            "name": "Poliambulatorio privato Santa Lucia",
            "lat": 44.4733453,
            "lon": 11.3693819,
            "phone": "Non disponibile",
            "address": "Via Augusto Murri"
        },
        {
            "name": "Poliambulatorio Zanolini",
            "lat": 44.4948214,
            "lon": 11.3573946,
            "phone": "Non disponibile",
            "address": "Via Antonio Zanolini"
        },
        {
            "name": "Poliambulatorio San Domenico",
            "lat": 44.4863741,
            "lon": 11.3747705,
            "phone": "+39 051 636 0967",
            "address": "Non disponibile"
        },
        {
            "name": "RadMedica",
            "lat": 44.5009973,
            "lon": 11.3414371,
            "phone": "+390514222240",
            "address": "Via del Porto"
        },
        {
            "name": "Nome non disponibile",
            "lat": 44.5008847,
            "lon": 11.3736344,
            "phone": "Non disponibile",
            "address": "Non disponibile"
        },
        {
            "name": "Centro medico legale INPS",
            "lat": 44.5023589,
            "lon": 11.3438109,
            "phone": "Non disponibile",
            "address": "Non disponibile"
        }
    ]
}